[
    {
        "location_id": "1986862",
        "name": "Molly Malone's Irish Pub",
        "distance": "0.21577135620046153",
        "bearing": "southeast",
        "address_obj": {
            "street1": "Oudezijds Kolk 9",
            "city": "Amsterdam",
            "state": "North Holland Province",
            "country": "The Netherlands",
            "postalcode": "1012 AL",
            "address_string": "Oudezijds Kolk 9, 1012 AL Amsterdam The Netherlands"
        },
        "latitude": 52.376106,
        "longitude": 4.901184
    },
    {
        "location_id": "967451",
        "name": "O'Reilly's Irish Pub",
        "distance": "0.48551511218132143",
        "bearing": "southwest",
        "address_obj": {
            "street1": "Paleisstraat 103-105",
            "street2": "",
            "city": "Amsterdam",
            "state": "North Holland Province",
            "country": "The Netherlands",
            "postalcode": "1012 ZL",
            "address_string": "Paleisstraat 103-105, 1012 ZL Amsterdam The Netherlands"
        },
        "latitude": 52.372395,
        "longitude": 4.890056
    },
    {
        "location_id": "3648914",
        "name": "Slainte Irish Pub",
        "distance": "0.22545953837859206",
        "bearing": "south",
        "address_obj": {
            "street1": "Warmoesstraat 87",
            "street2": "1012 Dz",
            "city": "Amsterdam",
            "state": "North Holland Province",
            "country": "The Netherlands",
            "postalcode": "1012 HZ",
            "address_string": "Warmoesstraat 87 1012 Dz, 1012 HZ Amsterdam The Netherlands"
        },
        "latitude": 52.3747,
        "longitude": 4.897244
    },
    {
        "location_id": "4263240",
        "name": "Euro Pub",
        "distance": "0.3625949835406756",
        "bearing": "south",
        "address_obj": {
            "street1": "Dam 7",
            "street2": "Unit V",
            "city": "Amsterdam",
            "state": "North Holland Province",
            "country": "The Netherlands",
            "postalcode": "1012 JS",
            "address_string": "Dam 7 Unit V, 1012 JS Amsterdam The Netherlands"
        },
        "latitude": 52.372982,
        "longitude": 4.894361
    },
    {
        "location_id": "3179655",
        "name": "Papeneiland Pub",
        "distance": "0.4135467451156848",
        "bearing": "northwest",
        "address_obj": {
            "street1": "Prinsengracht 2",
            "city": "Amsterdam",
            "state": "North Holland Province",
            "country": "The Netherlands",
            "postalcode": "1015 DV",
            "address_string": "Prinsengracht 2, 1015 DV Amsterdam The Netherlands"
        },
        "latitude": 52.38043,
        "longitude": 4.888152
    },
    {
        "location_id": "1951311",
        "name": "Ultimate Party Pub Crawl",
        "distance": "1.1568721097634134",
        "bearing": "southwest",
        "address_obj": {
            "street1": "564 Herengracht",
            "city": "Amsterdam",
            "state": "North Holland Province",
            "country": "The Netherlands",
            "postalcode": "1017 RG",
            "address_string": "564 Herengracht, 1017 RG Amsterdam The Netherlands"
        },
        "latitude": 52.3631,
        "longitude": 4.884494
    },
    {
        "location_id": "12954425",
        "name": "Durty Nelly's Irish Pub",
        "distance": "0.263424774594563",
        "bearing": "south",
        "address_obj": {
            "street1": "Warmoesstraat 115",
            "city": "Amsterdam",
            "state": "North Holland Province",
            "country": "The Netherlands",
            "postalcode": "1012 JA",
            "address_string": "Warmoesstraat 115, 1012 JA Amsterdam The Netherlands"
        },
        "latitude": 52.374165,
        "longitude": 4.896489
    },
    {
        "location_id": "5984009",
        "name": "Three Sisters Pub Amsterdam",
        "distance": "0.8063733394882473",
        "bearing": "south",
        "address_obj": {
            "street1": "Rembrandtplein 19",
            "city": "Amsterdam",
            "state": "North Holland Province",
            "country": "The Netherlands",
            "postalcode": "1017 CT",
            "address_string": "Rembrandtplein 19, 1017 CT Amsterdam The Netherlands"
        },
        "latitude": 52.3663,
        "longitude": 4.89714
    },
    {
        "location_id": "7247547",
        "name": "Temple Bar Irish Pub",
        "distance": "0.4161082293474573",
        "bearing": "south",
        "address_obj": {
            "street1": "Kloveniersburgwal 2",
            "city": "Amsterdam",
            "state": "North Holland Province",
            "country": "The Netherlands",
            "postalcode": "1012 CT",
            "address_string": "Kloveniersburgwal 2, 1012 CT Amsterdam The Netherlands"
        },
        "latitude": 52.372135,
        "longitude": 4.899555
    },
    {
        "location_id": "2206986",
        "name": "St James's Gate Irish Pub",
        "distance": "0.8295537786922167",
        "bearing": "south",
        "address_obj": {
            "street1": "Rembrandtplein 10",
            "street2": "",
            "city": "Amsterdam",
            "state": "North Holland Province",
            "country": "The Netherlands",
            "postalcode": "1017 CV",
            "address_string": "Rembrandtplein 10, 1017 CV Amsterdam The Netherlands"
        },
        "latitude": 52.36599,
        "longitude": 4.895772
    },
    {
        "location_id": "3726256",
        "name": "Louis Bar",
        "distance": "0.16086317465961741",
        "bearing": "southeast",
        "address_obj": {
            "street1": "Nieuwebrugsteeg 13",
            "city": "Amsterdam",
            "state": "North Holland Province",
            "country": "The Netherlands",
            "postalcode": "1012 JM",
            "address_string": "Nieuwebrugsteeg 13, 1012 JM Amsterdam The Netherlands"
        },
        "latitude": 52.37624,
        "longitude": 4.89964
    },
    {
        "location_id": "7138471",
        "name": "Bar Prik",
        "distance": "0.3470991558523784",
        "bearing": "southwest",
        "address_obj": {
            "street1": "Spuistraat 109",
            "city": "Amsterdam",
            "state": "North Holland Province",
            "country": "The Netherlands",
            "postalcode": "1012 SV",
            "address_string": "Spuistraat 109, 1012 SV Amsterdam The Netherlands"
        },
        "latitude": 52.374756,
        "longitude": 4.890739
    },
    {
        "location_id": "10455142",
        "name": "Bar The Tailor",
        "distance": "0.3798860156949547",
        "bearing": "south",
        "address_obj": {
            "street1": "Dam 9",
            "city": "Amsterdam",
            "state": "North Holland Province",
            "country": "The Netherlands",
            "postalcode": "1012 JS",
            "address_string": "Dam 9, 1012 JS Amsterdam The Netherlands"
        },
        "latitude": 52.372665,
        "longitude": 4.894658
    },
    {
        "location_id": "11864661",
        "name": "Red Light Bar",
        "distance": "0.33033049282032717",
        "bearing": "south",
        "address_obj": {
            "street1": "Oudezijds Achterburgwal 61",
            "city": "Amsterdam",
            "state": "North Holland Province",
            "country": "The Netherlands",
            "postalcode": "1012 DB",
            "address_string": "Oudezijds Achterburgwal 61, 1012 DB Amsterdam The Netherlands"
        },
        "latitude": 52.373337,
        "longitude": 4.899053
    },
    {
        "location_id": "2340111",
        "name": "Burger Bar",
        "distance": "0.16166541857610378",
        "bearing": "southeast",
        "address_obj": {
            "street1": "Warmoesstraat 21",
            "street2": "",
            "city": "Amsterdam",
            "state": "North Holland Province",
            "country": "The Netherlands",
            "postalcode": "1012 HT",
            "address_string": "Warmoesstraat 21, 1012 HT Amsterdam The Netherlands"
        },
        "latitude": 52.375916,
        "longitude": 4.898936
    },
    {
        "location_id": "15262703",
        "name": "The Chicken Bar",
        "distance": "0.7164145424877422",
        "bearing": "south",
        "address_obj": {
            "street1": "Voetboogstraat 6-8",
            "city": "Amsterdam",
            "state": "North Holland Province",
            "country": "The Netherlands",
            "postalcode": "1012 XL",
            "address_string": "Voetboogstraat 6-8, 1012 XL Amsterdam The Netherlands"
        },
        "latitude": 52.368378,
        "longitude": 4.890617
    },
    {
        "location_id": "696991",
        "name": "Pulitzer's Bar",
        "distance": "0.6447870920172238",
        "bearing": "southwest",
        "address_obj": {
            "street1": "Keizersgracht 234",
            "street2": "",
            "city": "Amsterdam",
            "state": "North Holland Province",
            "country": "The Netherlands",
            "postalcode": "1016 GZ",
            "address_string": "Keizersgracht 234, 1016 GZ Amsterdam The Netherlands"
        },
        "latitude": 52.37266,
        "longitude": 4.884503
    },
    {
        "location_id": "13540612",
        "name": "Bar TwentySeven",
        "distance": "0.38597731639380767",
        "bearing": "south",
        "address_obj": {
            "street1": "Dam 27",
            "street2": "Hotel TwentySeven",
            "city": "Amsterdam",
            "state": "North Holland Province",
            "country": "The Netherlands",
            "postalcode": "1012 JS",
            "address_string": "Dam 27 Hotel TwentySeven, 1012 JS Amsterdam The Netherlands"
        },
        "latitude": 52.372787,
        "longitude": 4.893626
    },
    {
        "location_id": "7837439",
        "name": "The Seafood Bar",
        "distance": "0.6925844191908881",
        "bearing": "southwest",
        "address_obj": {
            "street1": "Spui 15",
            "street2": "Plein",
            "city": "Amsterdam",
            "state": "North Holland Province",
            "country": "The Netherlands",
            "postalcode": "1012 WX",
            "address_string": "Spui 15 Plein, 1012 WX Amsterdam The Netherlands"
        },
        "latitude": 52.36876,
        "longitude": 4.890587
    },
    {
        "location_id": "7139546",
        "name": "Arendsnest Dutch Beer Bar",
        "distance": "0.3263520747511318",
        "bearing": "west",
        "address_obj": {
            "street1": "Herengracht 90",
            "city": "Amsterdam",
            "state": "North Holland Province",
            "country": "The Netherlands",
            "postalcode": "1015 BS",
            "address_string": "Herengracht 90, 1015 BS Amsterdam The Netherlands"
        },
        "latitude": 52.37673,
        "longitude": 4.889606
    },
    {
        "location_id": "7138471",
        "name": "Bar Prik",
        "distance": "0.3470991558523784",
        "bearing": "southwest",
        "address_obj": {
            "street1": "Spuistraat 109",
            "city": "Amsterdam",
            "state": "North Holland Province",
            "country": "The Netherlands",
            "postalcode": "1012 SV",
            "address_string": "Spuistraat 109, 1012 SV Amsterdam The Netherlands"
        },
        "latitude": 52.374756,
        "longitude": 4.890739
    },
    {
        "location_id": "3726256",
        "name": "Louis Bar",
        "distance": "0.16086317465961741",
        "bearing": "southeast",
        "address_obj": {
            "street1": "Nieuwebrugsteeg 13",
            "city": "Amsterdam",
            "state": "North Holland Province",
            "country": "The Netherlands",
            "postalcode": "1012 JM",
            "address_string": "Nieuwebrugsteeg 13, 1012 JM Amsterdam The Netherlands"
        },
        "latitude": 52.37624,
        "longitude": 4.89964
    },
    {
        "location_id": "7139546",
        "name": "Arendsnest Dutch Beer Bar",
        "distance": "0.3263520747511318",
        "bearing": "west",
        "address_obj": {
            "street1": "Herengracht 90",
            "city": "Amsterdam",
            "state": "North Holland Province",
            "country": "The Netherlands",
            "postalcode": "1015 BS",
            "address_string": "Herengracht 90, 1015 BS Amsterdam The Netherlands"
        },
        "latitude": 52.37673,
        "longitude": 4.889606
    },
    {
        "location_id": "245237",
        "name": "The Waterhole Live Music Bar",
        "distance": "1.0924829540514738",
        "bearing": "southwest",
        "address_obj": {
            "street1": "Korte Leidsedwarsstraat 49",
            "city": "Amsterdam",
            "state": "North Holland Province",
            "country": "The Netherlands",
            "postalcode": "1017 PW",
            "address_string": "Korte Leidsedwarsstraat 49, 1017 PW Amsterdam The Netherlands"
        },
        "latitude": 52.36486,
        "longitude": 4.882609
    },
    {
        "location_id": "13385959",
        "name": "Locals",
        "distance": "1.4522816371174",
        "bearing": "south",
        "address_obj": {
            "street1": "Eerste Jacob van Campenstraat 27-H",
            "city": "Amsterdam",
            "state": "North Holland Province",
            "country": "The Netherlands",
            "postalcode": "1072 BC",
            "address_string": "Eerste Jacob van Campenstraat 27-H, 1072 BC Amsterdam The Netherlands"
        },
        "latitude": 52.357548,
        "longitude": 4.888995
    },
    {
        "location_id": "2340111",
        "name": "Burger Bar",
        "distance": "0.16166541857610378",
        "bearing": "southeast",
        "address_obj": {
            "street1": "Warmoesstraat 21",
            "street2": "",
            "city": "Amsterdam",
            "state": "North Holland Province",
            "country": "The Netherlands",
            "postalcode": "1012 HT",
            "address_string": "Warmoesstraat 21, 1012 HT Amsterdam The Netherlands"
        },
        "latitude": 52.375916,
        "longitude": 4.898936
    },
    {
        "location_id": "15262703",
        "name": "The Chicken Bar",
        "distance": "0.7164145424877422",
        "bearing": "south",
        "address_obj": {
            "street1": "Voetboogstraat 6-8",
            "city": "Amsterdam",
            "state": "North Holland Province",
            "country": "The Netherlands",
            "postalcode": "1012 XL",
            "address_string": "Voetboogstraat 6-8, 1012 XL Amsterdam The Netherlands"
        },
        "latitude": 52.368378,
        "longitude": 4.890617
    },
    {
        "location_id": "7837439",
        "name": "The Seafood Bar",
        "distance": "0.6925844191908881",
        "bearing": "southwest",
        "address_obj": {
            "street1": "Spui 15",
            "street2": "Plein",
            "city": "Amsterdam",
            "state": "North Holland Province",
            "country": "The Netherlands",
            "postalcode": "1012 WX",
            "address_string": "Spui 15 Plein, 1012 WX Amsterdam The Netherlands"
        },
        "latitude": 52.36876,
        "longitude": 4.890587
    },
    {
        "location_id": "753109",
        "name": "The Black Tiger Cafe",
        "distance": "0.2884964655460516",
        "bearing": "southeast",
        "address_obj": {
            "street1": "Oudezijds Achterburgwal 23",
            "street2": "",
            "city": "Amsterdam",
            "state": "North Holland Province",
            "country": "The Netherlands",
            "postalcode": "1012 DA",
            "address_string": "Oudezijds Achterburgwal 23, 1012 DA Amsterdam The Netherlands"
        },
        "latitude": 52.374126,
        "longitude": 4.899775
    },
    {
        "location_id": "10455142",
        "name": "Bar The Tailor",
        "distance": "0.3798860156949547",
        "bearing": "south",
        "address_obj": {
            "street1": "Dam 9",
            "city": "Amsterdam",
            "state": "North Holland Province",
            "country": "The Netherlands",
            "postalcode": "1012 JS",
            "address_string": "Dam 9, 1012 JS Amsterdam The Netherlands"
        },
        "latitude": 52.372665,
        "longitude": 4.894658
    }
]